[
  { "number": 1,  "name": "Innere Stadt",         "plz": "1010", "center": { "lat": 48.2082, "lng": 16.3738 } },
  { "number": 2,  "name": "Leopoldstadt",         "plz": "1020", "center": { "lat": 48.2172, "lng": 16.3931 } },
  { "number": 3,  "name": "Landstraße",           "plz": "1030", "center": { "lat": 48.1956, "lng": 16.3944 } },
  { "number": 4,  "name": "Wieden",               "plz": "1040", "center": { "lat": 48.1883, "lng": 16.3700 } },
  { "number": 5,  "name": "Margareten",           "plz": "1050", "center": { "lat": 48.1867, "lng": 16.3583 } },
  { "number": 6,  "name": "Mariahilf",            "plz": "1060", "center": { "lat": 48.1959, "lng": 16.3494 } },
  { "number": 7,  "name": "Neubau",               "plz": "1070", "center": { "lat": 48.2027, "lng": 16.3506 } },
  { "number": 8,  "name": "Josefstadt",           "plz": "1080", "center": { "lat": 48.2104, "lng": 16.3477 } },
  { "number": 9,  "name": "Alsergrund",           "plz": "1090", "center": { "lat": 48.2222, "lng": 16.3581 } },
  { "number": 10, "name": "Favoriten",            "plz": "1100", "center": { "lat": 48.1717, "lng": 16.3783 } },
  { "number": 11, "name": "Simmering",            "plz": "1110", "center": { "lat": 48.1506, "lng": 16.4528 } },
  { "number": 12, "name": "Meidling",             "plz": "1120", "center": { "lat": 48.1692, "lng": 16.3306 } },
  { "number": 13, "name": "Hietzing",             "plz": "1130", "center": { "lat": 48.1867, "lng": 16.3000 } },
  { "number": 14, "name": "Penzing",              "plz": "1140", "center": { "lat": 48.2028, "lng": 16.2919 } },
  { "number": 15, "name": "Rudolfsheim-Fünfhaus", "plz": "1150", "center": { "lat": 48.1958, "lng": 16.3322 } },
  { "number": 16, "name": "Ottakring",            "plz": "1160", "center": { "lat": 48.2131, "lng": 16.3139 } },
  { "number": 17, "name": "Hernals",              "plz": "1170", "center": { "lat": 48.2275, "lng": 16.3306 } },
  { "number": 18, "name": "Währing",              "plz": "1180", "center": { "lat": 48.2317, "lng": 16.3275 } },
  { "number": 19, "name": "Döbling",              "plz": "1190", "center": { "lat": 48.2503, "lng": 16.3456 } },
  { "number": 20, "name": "Brigittenau",          "plz": "1200", "center": { "lat": 48.2356, "lng": 16.3722 } },
  { "number": 21, "name": "Floridsdorf",          "plz": "1210", "center": { "lat": 48.2700, "lng": 16.4050 } },
  { "number": 22, "name": "Donaustadt",           "plz": "1220", "center": { "lat": 48.2350, "lng": 16.4706 } },
  { "number": 23, "name": "Liesing",              "plz": "1230", "center": { "lat": 48.1400, "lng": 16.2906 } }
]
